{
  "data": {
    "1": [
      {
        "latitude": 37.647,
        "longitude": 127.0818,
        "address": "서울광역시 남구",
        "hour": 0,
        "min": 0,
        "img": "start_img",
        "category_name": "관광코스",
        "filter": [
          "휠체어대여",
          "점자블록"
        ]
      },
      {
        "latitude": 37.61453,
        "longitude": 127.013106,
        "address": "서울광역시 남구",
        "hour": 0,
        "min": 15,
        "img": "course1_img",
        "category_name": "관광코스",
        "filter": [
          "휠체어대여"
        ]
      },
      {
        "latitude": 127.0013586618,
        "longitude": 37.5370636368,
        "address": "서울특별시 용산구 이태원로42길 60",
        "hour": 1,
        "min": 0,
        "img": "http://tong.visitkorea.or.kr/cms/resource/48/2493748_image2_1.JPG",
        "phone": "02-794-7073",
        "place_url": "http://place.map.kakao.com/27277789",
        "category_name": "음식점 > 아시아음식 > 동남아음식 > 베트남음식",
        "title": "골든불"
      },
      {
        "latitude": 37.58896,
        "longitude": 126.934203,
        "address": "서울광역시 남구",
        "hour": 0,
        "min": 15,
        "img": "course6_img",
        "category_name": "관광코스",
        "filter": [
          "휠체어대여"
        ]
      },
      {
        "latitude": 37.599289,
        "longitude": 126.865082,
        "address": "서울광역시 남구",
        "hour": 0,
        "min": 5,
        "img": "course3_img",
        "category_name": "관광코스",
        "filter": [
          "휠체어대여",
          "점자블록"
        ]
      },
      {
        "latitude": 127.0013586618,
        "longitude": 37.5370636368,
        "address": "서울특별시 용산구 이태원로42길 60",
        "hour": 1,
        "min": 0,
        "img": "http://tong.visitkorea.or.kr/cms/resource/48/2493748_image2_1.JPG",
        "phone": "02-794-7073",
        "place_url": "http://place.map.kakao.com/27277789",
        "category_name": "음식점 > 아시아음식 > 동남아음식 > 베트남음식",
        "title": "골든불"
      }
    ],
    "2": [
      {
        "latitude": 127.0013586618,
        "longitude": 37.5370636368,
        "address": "서울특별시 용산구 이태원로42길 60",
        "hour": 1,
        "min": 0,
        "img": "http://tong.visitkorea.or.kr/cms/resource/48/2493748_image2_1.JPG",
        "phone": "02-794-7073",
        "place_url": "http://place.map.kakao.com/27277789",
        "category_name": "음식점 > 아시아음식 > 동남아음식 > 베트남음식",
        "title": "골든불"
      },
      {
        "latitude": 37.614391,
        "longitude": 127.030477,
        "address": "서울광역시 남구",
        "hour": 0,
        "min": 30,
        "img": "course3_img",
        "category_name": "관광코스",
        "filter": [
          "휠체어대여",
          "점자블록"
        ]
      },
      {
        "latitude": 37.654815,
        "longitude": 127.051709,
        "address": "서울광역시 남구",
        "hour": 0,
        "min": 10,
        "img": "course4_img",
        "category_name": "관광코스",
        "filter": [
          "휠체어대여",
          "점자블록"
        ]
      },
      {
        "latitude": 37.653424,
        "longitude": 127.058251,
        "address": "서울광역시 남구",
        "hour": 0,
        "min": 10,
        "img": "course2_img",
        "category_name": "관광코스",
        "filter": [
          "휠체어대여",
          "점자블록"
        ]
      },
      {
        "latitude": 37.65251,
        "longitude": 127.061598,
        "address": "서울광역시 남구",
        "hour": 0,
        "min": 20,
        "img": "course5_img",
        "category_name": "관광코스",
        "filter": [
          "휠체어대여"
        ]
      },
      {
        "latitude": 37.647,
        "longitude": 127.0818,
        "address": "서울광역시 남구",
        "hour": 0,
        "min": 0,
        "img": "end_img",
        "category_name": "관광코스",
        "filter": [
          "휠체어대여"
        ]
      }
    ]
  }
}